{
	"Сыктывкар": {
		"id": "2",
		"name": "Сыктывкар",
		"location": {
			"lat": 61.6478508,
			"lng": 50.8339029
		}
	},
	"Ухта": {
		"id": "3",
		"name": "Ухта",
		"location": {
			"lat": 63.56732099999999,
			"lng": 53.7471594
		}
	},
	"Смоленск": {
		"id": "4",
		"name": "Смоленск",
		"location": {
			"lat": 54.7903112,
			"lng": 32.0503663
		}
	},
	"Тестовое подразделение": {
		"id": "5",
		"name": "Тестовое подразделение"
	},
	"Челябинск": {
		"id": "6",
		"name": "Челябинск",
		"location": {
			"lat": 55.1644419,
			"lng": 61.4368431
		}
	},
	"Сарапул": {
		"id": "7",
		"name": "Сарапул",
		"location": {
			"lat": 56.4539288,
			"lng": 53.7742185
		}
	},
	"Самара": {
		"id": "8",
		"name": "Самара",
		"location": {
			"lat": 53.2415041,
			"lng": 50.2212463
		}
	},
	"Белгород": {
		"id": "9",
		"name": "Белгород",
		"location": {
			"lat": 50.5997134,
			"lng": 36.5982621
		}
	},
	"Октябрьский": {
		"id": "11",
		"name": "Октябрьский",
		"location": {
			"lat": 54.4772015,
			"lng": 53.4895394
		}
	},
	"Ульяновск": {
		"id": "12",
		"name": "Ульяновск",
		"location": {
			"lat": 54.3181598,
			"lng": 48.3837914
		}
	},
	"Таганрог": {
		"id": "13",
		"name": "Таганрог",
		"location": {
			"lat": 47.2416334,
			"lng": 38.8676013
		}
	},
	"Долгопрудный": {
		"id": "14",
		"name": "Долгопрудный",
		"location": {
			"lat": 55.947064,
			"lng": 37.4992755
		}
	},
	"Гатчина ": {
		"id": "15",
		"name": "Гатчина ",
		"location": {
			"lat": 59.5624627,
			"lng": 30.1064659
		}
	},
	"Энгельс": {
		"id": "16",
		"name": "Энгельс",
		"location": {
			"lat": 51.4753297,
			"lng": 46.1136773
		}
	},
	"Красноярск": {
		"id": "17",
		"name": "Красноярск",
		"location": {
			"lat": 56.01528339999999,
			"lng": 92.8932476
		}
	},
	"Абакан": {
		"id": "18",
		"name": "Абакан",
		"location": {
			"lat": 53.7175644,
			"lng": 91.4293172
		}
	},
	"Нижнекамск": {
		"id": "19",
		"name": "Нижнекамск",
		"location": {
			"lat": 55.613196,
			"lng": 51.8469974
		}
	},
	"Майкоп": {
		"id": "20",
		"name": "Майкоп",
		"location": {
			"lat": 44.5984115,
			"lng": 40.1080869
		}
	},
	"Королев": {
		"id": "21",
		"name": "Королев",
		"location": {
			"lat": 55.9316797,
			"lng": 37.8518552
		}
	},
	"Махачкала": {
		"id": "22",
		"name": "Махачкала",
		"location": {
			"lat": 42.9666308,
			"lng": 47.51262850000001
		}
	},
	"Мытищи": {
		"id": "23",
		"name": "Мытищи",
		"location": {
			"lat": 55.9198471,
			"lng": 37.7654985
		}
	},
	"Реутов": {
		"id": "24",
		"name": "Реутов",
		"location": {
			"lat": 55.7617579,
			"lng": 37.8613023
		}
	},
	"Альметьевск": {
		"id": "25",
		"name": "Альметьевск",
		"location": {
			"lat": 54.8937128,
			"lng": 52.317293
		}
	},
	"Ростов-на-Дону": {
		"id": "28",
		"name": "Ростов-на-Дону",
		"location": {
			"lat": 47.2357137,
			"lng": 39.701505
		}
	},
	"Уссурийск": {
		"id": "30",
		"name": "Уссурийск",
		"location": {
			"lat": 43.8023134,
			"lng": 131.963089
		}
	},
	"Химки": {
		"id": "31",
		"name": "Химки",
		"location": {
			"lat": 55.8940553,
			"lng": 37.44394870000001
		}
	},
	"Колпино": {
		"id": "35",
		"name": "Колпино",
		"location": {
			"lat": 59.761761,
			"lng": 30.5788969
		}
	},
	"Новороссийск": {
		"id": "36",
		"name": "Новороссийск",
		"location": {
			"lat": 44.7154014,
			"lng": 37.7619669
		}
	},
	"Каскелен": {
		"id": "37",
		"name": "Каскелен",
		"location": {
			"lat": 43.20104430000001,
			"lng": 76.6354952
		}
	},
	"Калининград": {
		"id": "38",
		"name": "Калининград",
		"location": {
			"lat": 54.7104264,
			"lng": 20.4522144
		}
	},
	"Чайковский": {
		"id": "39",
		"name": "Чайковский",
		"location": {
			"lat": 56.766116,
			"lng": 54.1276714
		}
	},
	"Тюмень": {
		"id": "40",
		"name": "Тюмень",
		"location": {
			"lat": 57.1612975,
			"lng": 65.5250172
		}
	},
	"Бугульма": {
		"id": "42",
		"name": "Бугульма",
		"location": {
			"lat": 54.5220314,
			"lng": 52.8260805
		}
	},
	"Волжский": {
		"id": "44",
		"name": "Волжский",
		"location": {
			"lat": 48.8176494,
			"lng": 44.7707294
		}
	},
	"Муром": {
		"id": "45",
		"name": "Муром",
		"location": {
			"lat": 55.5673975,
			"lng": 42.0165852
		}
	},
	"Березники": {
		"id": "46",
		"name": "Березники",
		"location": {
			"lat": 59.41318270000001,
			"lng": 56.7849318
		}
	},
	"Нефтекамск": {
		"id": "47",
		"name": "Нефтекамск",
		"location": {
			"lat": 56.1026081,
			"lng": 54.2867394
		}
	},
	"Комсомольск-на-Амуре": {
		"id": "49",
		"name": "Комсомольск-на-Амуре",
		"location": {
			"lat": 50.5670331,
			"lng": 136.9658947
		}
	},
	"Астрахань": {
		"id": "50",
		"name": "Астрахань",
		"location": {
			"lat": 46.3588045,
			"lng": 48.0599345
		}
	},
	"Ачинск": {
		"id": "51",
		"name": "Ачинск",
		"location": {
			"lat": 56.2360841,
			"lng": 90.4903153
		}
	},
	"Прокопьевск": {
		"id": "52",
		"name": "Прокопьевск",
		"location": {
			"lat": 53.88875299999999,
			"lng": 86.7591829
		}
	},
	"Ленинск-Кузнецкий": {
		"id": "53",
		"name": "Ленинск-Кузнецкий",
		"location": {
			"lat": 54.6699128,
			"lng": 86.17345379999999
		}
	},
	"Нижневартовск": {
		"id": "54",
		"name": "Нижневартовск",
		"location": {
			"lat": 60.9431185,
			"lng": 76.5433724
		}
	},
	"Щелково": {
		"id": "55",
		"name": "Щелково",
		"location": {
			"lat": 55.917038,
			"lng": 38.0369347
		}
	},
	"Зеленоград": {
		"id": "56",
		"name": "Зеленоград",
		"location": {
			"lat": 55.98715259999999,
			"lng": 37.2021514
		}
	},
	"Ангарск": {
		"id": "57",
		"name": "Ангарск",
		"location": {
			"lat": 52.5155702,
			"lng": 103.91716
		}
	},
	"Одинцово": {
		"id": "58",
		"name": "Одинцово",
		"location": {
			"lat": 55.67337449999999,
			"lng": 37.2818569
		}
	},
	"Москва": {
		"id": "59",
		"name": "Москва",
		"location": {
			"lat": 55.755826,
			"lng": 37.6173
		}
	},
	"Саратов": {
		"id": "60",
		"name": "Саратов",
		"location": {
			"lat": 51.55637890000001,
			"lng": 45.9798167
		}
	},
	"Дедовск": {
		"id": "61",
		"name": "Дедовск",
		"location": {
			"lat": 55.8628407,
			"lng": 37.1217052
		}
	},
	"Московский": {
		"id": "62",
		"name": "Московский",
		"location": {
			"lat": 55.5986468,
			"lng": 37.3511492
		}
	},
	"Вологда": {
		"id": "63",
		"name": "Вологда",
		"location": {
			"lat": 59.21806649999999,
			"lng": 39.8978052
		}
	},
	"Балашиха": {
		"id": "64",
		"name": "Балашиха",
		"location": {
			"lat": 55.7981904,
			"lng": 37.9679867
		}
	},
	"Домодедово": {
		"id": "65",
		"name": "Домодедово",
		"location": {
			"lat": 55.44302339999999,
			"lng": 37.747817
		}
	},
	"Калуга": {
		"id": "66",
		"name": "Калуга",
		"location": {
			"lat": 54.5518584,
			"lng": 36.2850973
		}
	},
	"Салават": {
		"id": "67",
		"name": "Салават",
		"location": {
			"lat": 53.38604369999999,
			"lng": 55.9259472
		}
	},
	"Сургут": {
		"id": "68",
		"name": "Сургут",
		"location": {
			"lat": 61.25595029999999,
			"lng": 73.38454709999999
		}
	},
	"Всеволожск": {
		"id": "69",
		"name": "Всеволожск",
		"location": {
			"lat": 60.0098612,
			"lng": 30.6606402
		}
	},
	"Петрозаводск": {
		"id": "70",
		"name": "Петрозаводск",
		"location": {
			"lat": 61.77816170000001,
			"lng": 34.3640396
		}
	},
	"Петергоф": {
		"id": "71",
		"name": "Петергоф",
		"location": {
			"lat": 59.88450030000001,
			"lng": 29.8851756
		}
	},
	"Балаково": {
		"id": "72",
		"name": "Балаково",
		"location": {
			"lat": 52.0245587,
			"lng": 47.7806626
		}
	},
	"Нефтеюганск": {
		"id": "73",
		"name": "Нефтеюганск",
		"location": {
			"lat": 61.09806409999999,
			"lng": 72.5816466
		}
	},
	"Новочебоксарск": {
		"id": "74",
		"name": "Новочебоксарск",
		"location": {
			"lat": 56.103603,
			"lng": 47.5065073
		}
	},
	"Железнодорожный": {
		"id": "75",
		"name": "Железнодорожный",
		"location": {
			"lat": 55.73737569999999,
			"lng": 38.0095391
		}
	},
	"Додо Франчайзинг": {
		"id": "76",
		"name": "Додо Франчайзинг"
	},
	"Люберцы": {
		"id": "77",
		"name": "Люберцы",
		"location": {
			"lat": 55.686462,
			"lng": 37.8981554
		}
	},
	"Тверь": {
		"id": "78",
		"name": "Тверь",
		"location": {
			"lat": 56.85872140000001,
			"lng": 35.9175965
		}
	},
	"Тобольск": {
		"id": "79",
		"name": "Тобольск",
		"location": {
			"lat": 58.200024,
			"lng": 68.26352279999999
		}
	},
	"Благовещенск": {
		"id": "80",
		"name": "Благовещенск",
		"location": {
			"lat": 50.2727763,
			"lng": 127.5404017
		}
	},
	"Шахты": {
		"id": "81",
		"name": "Шахты",
		"location": {
			"lat": 47.7236224,
			"lng": 40.2355138
		}
	},
	"Лобня": {
		"id": "82",
		"name": "Лобня",
		"location": {
			"lat": 56.0172312,
			"lng": 37.4852637
		}
	},
	"Пушкино": {
		"id": "83",
		"name": "Пушкино",
		"location": {
			"lat": 55.98783299999999,
			"lng": 37.8411773
		}
	},
	"Абинск": {
		"id": "84",
		"name": "Абинск",
		"location": {
			"lat": 44.8715341,
			"lng": 38.1644618
		}
	},
	"Ханты-Мансийск": {
		"id": "85",
		"name": "Ханты-Мансийск",
		"location": {
			"lat": 61.00909189999999,
			"lng": 69.03745959999999
		}
	},
	"Ивантеевка": {
		"id": "86",
		"name": "Ивантеевка",
		"location": {
			"lat": 55.975927,
			"lng": 37.9195199
		}
	},
	"Орск": {
		"id": "87",
		"name": "Орск",
		"location": {
			"lat": 51.2145242,
			"lng": 58.5440566
		}
	},
	"Жуковский": {
		"id": "88",
		"name": "Жуковский",
		"location": {
			"lat": 55.5974912,
			"lng": 38.1132562
		}
	},
	"Казань": {
		"id": "89",
		"name": "Казань",
		"location": {
			"lat": 55.8304307,
			"lng": 49.06608060000001
		}
	},
	"Зеленокумск": {
		"id": "90",
		"name": "Зеленокумск",
		"location": {
			"lat": 44.4140877,
			"lng": 43.87361569999999
		}
	},
	"Вельск": {
		"id": "91",
		"name": "Вельск",
		"location": {
			"lat": 61.06376580000001,
			"lng": 42.0991053
		}
	},
	"Выборг": {
		"id": "92",
		"name": "Выборг",
		"location": {
			"lat": 60.7139529,
			"lng": 28.75715709999999
		}
	},
	"Новокуйбышевск": {
		"id": "93",
		"name": "Новокуйбышевск",
		"location": {
			"lat": 53.0960666,
			"lng": 49.8912888
		}
	},
	"Тольятти": {
		"id": "94",
		"name": "Тольятти",
		"location": {
			"lat": 53.5086002,
			"lng": 49.4198344
		}
	},
	"Москва. Южное Медведково": {
		"id": "95",
		"name": "Москва. Южное Медведково",
		"location": {
			"lat": 55.8729336,
			"lng": 37.6429898
		}
	},
	"Серпухов": {
		"id": "96",
		"name": "Серпухов",
		"location": {
			"lat": 54.9179562,
			"lng": 37.4229963
		}
	}
}